ID-DEV: 5f5e8265927ed5001732415c
ID-PRO: 5f5e94e3bc20820017fb9251
{
  "name": "Plaça de la Vila",
  "address": "Plaça de la Vila, 08470 Sant Celoni",
  "formattedAddress": "Plaça de la Vila, 08470 Sant Celoni, Barcelona, Spain",
  "longitude": 41.689921,
	"latitude": 2.491937,
  "event": "{{EVENT_ID}}"
}
ID-DEV: 5f5e8279927ed5001732415d
ID-PRO: 5f5e9512bc20820017fb9252
{
  "name": "Teatre Ateneu",
  "address": "Ctra. Vella, 25, 08470 Sant Celoni",
  "formattedAddress": "Ctra. Vella, 25, 08470 Sant Celoni, Barcelona",
  "longitude": 41.687621, 
  "latitude": 2.489384,
  "event": "{{EVENT_ID}}"
}
ID-DEV: 5f5e8298927ed5001732415e
{
  "name": "Pistes esportives de Sant Ponç",
  "address": "Carrer Bruc, 77 08470 Sant Celoni",
  "formattedAddress": "Carrer del Bruc, 77-71, 08470 Sant Celoni, Barcelona",
  "longitude": 41.694588, 
  "latitude": 2.499077,
  "event": "{{EVENT_ID}}"
}
ID-DEV: 5f5e82a8927ed5001732415f
{
  "name": "Pistes esportives de les Illes Belles",
  "address": "Carrer Bisbe Irurita, 2, 08470 Sant Celoni",
  "formattedAddress": "Carrer Bisbe Irurita, 2, 08470 Sant Celoni, Barcelona",
  "longitude": 41.693714,  
  "latitude": 2.503130,
  "event": "{{EVENT_ID}}"
}
ID-DEV: 5f5e82b7927ed50017324160
ID-PRO: 5f5e9523bc20820017fb9253
{
  "name": "Jardins de la rectoria Vella",
  "address": "Parc de la Rectoria Vella s/n, 08470 Sant Celoni",
  "formattedAddress": "Parc de la Rectoria Vella s/n, 08470 Sant Celoni, Barcelona",
  "longitude": 41.693289,   
  "latitude": 2.489510,
  "event": "{{EVENT_ID}}"
}
ID-DEV: 
{
  "name": "Pista 3 Camp Municipal d'Esports",
  "address": "Passeig dels Esports, 11, 08470 Sant Celoni",
  "formattedAddress": "Passeig dels Esports, 11, 08470 Sant Celoni, Barcelona",
  "longitude": 41.691566, 
  "latitude": 2.489049,
  "event": "{{EVENT_ID}}"
}
ID-DEV: 
{
  "name": "Carrer al Pavelló Sot de les Granotes",
  "address": "Carrer Francesc Macià, 15, 08470 Sant Celoni",
  "formattedAddress": "Carrer Francesc Macià, 15, 08470 Sant Celoni, Barcelona",
  "longitude": 41.681940,
  "latitude": 2.482640,
  "event": "{{EVENT_ID}}"
}
ID-DEV: 5f5e8540927ed5001732416b
{
  "name": "Pati de Can Ramis",
  "address": "Carrer Sant Josep, 97, 08470 Sant Celoni",
  "formattedAddress": "Carrer Sant Josep, 97, 08470 Sant Celoni, Barcelona",
  "longitude": 41.689583,
  "latitude": 2.492449,
  "event": "{{EVENT_ID}}"
}
ID-DEV: 5f5e831f927ed50017324162
{
  "name": "Aparcament Pavelló 11 de Setembre",
  "address": "Plaça Sector Residenc Esports, 49, 08470 Sant Celoni",
  "formattedAddress": "Plaça Sector Residenc Esports, 49, 08470 Sant Celoni, Barcelona",
  "longitude": 41.692142, 
  "latitude": 2.487699,
  "event": "{{EVENT_ID}}"
}
ID-DEV: 5f5e82f7927ed50017324161
ID-PRO: 5f5e953ebc20820017fb9254
{
  "name": "Camp Municipal d'Esports",
  "address": "Passeig dels Esports, 11, 08470 Sant Celoni",
  "formattedAddress": "Passeig dels Esports, 11, 08470 Sant Celoni, Barcelona",
  "longitude": 41.691998, 
  "latitude": 2.488662,
  "event": "{{EVENT_ID}}"
}
ID-DEV: 
{
  "name": "Skate Park Sant Celoni",
  "address": "Passeig de la Rectoria Vella s/n, 08470 Sant Celoni",
  "formattedAddress": "Passeig de la Rectoria Vella s/n, 08470 Sant Celoni, Barcelona",
  "longitude": 41.694266,  
  "latitude": 2.485583,
  "event": "{{EVENT_ID}}"
}